{"IP": "54.68.56.196"}
{"topic": "RESYNC/866600047224373", "msg": "\n2;866600047224373;$GPRMC,235950.628,V,,,,,0.00,0.00,050180,,,N*45\r\n$GPGGA,235950.628,,,,,0,0,,,M,,M,,*4C\r\n$GPTXT,01,01,02,ANTSTATUS=OPEN*2B\r\n;15905;16051;16583;21927;12558;18481;13631;18370;15891;12278;63098;65146;64810;64800;64249;64485;530;274;1277;2263;252;564;65196;64318;1530;1510;1238;864;2240;2458;60;34;92;119;127;97;194;234;176;153;65510;66;65455;92;65342;64;65478;96;70;65450;87;22;65;65439;15;59;88;107;65520;139;33;5;23;5;15;9;22;5;5;4;30;0;-1;"}
{"topic": "DEVICES/865291040682873", "msg": "1536;865291040682873;$GPRMC,023720.704,A,2041.7001,N,07258.5006,E,25.25,49.72,090322,,,A*61\r\n$GPGGA,023720.704,2041.7001,N,07258.5006,E,1,4,2.52,-5.9,M,-61.9,M,,*52\r\n$GPTXT,01,01,02,ANTSTATUS=OPEN*2B\r\n;16072;14626;15018;16864;13779;17377;15435;18648;16027;16427;64865;64960;640;61800;522;62967;9;61801;64774;65364;4351;65460;62120;63742;64386;3509;61116;4658;512;2714;159;188;81;179;79;81;205;84;127;24;80;408;65264;139;30;89;65523;73;65345;13;114;65466;106;103;76;106;65499;248;65442;214;1;1;1;1;1;1;1;1;1;1;24;0;-1;"}
{"topic": "DEVICES/865291040688508", "msg": "223;865291040688508;$GPTXT,01,01,02,ANTSTATUS=OK*3B\r\n$GPRMC,023720.431,A,2516.5777,N,08308.3639,E,3.30,182.13,090322,,,D*64\r\n$GPGGA,023720.431,2516.5777,N,08308.3639,E,2,10,0.85,64.8,M,-47.9,M,,*72\r\n;16948;16533;17248;17023;14292;16638;19165;15375;17166;15217;809;64233;433;65158;65148;1012;849;65218;65499;63988;61020;61920;62235;62018;61838;61182;109;60230;62895;61997;140;178;101;118;150;78;157;189;78;193;65519;65443;65386;65421;65411;65475;40;65460;65430;65488;59;16;65453;65503;65524;65511;15;8;65484;65504;5;5;5;5;5;5;4;5;5;5;23;0;-1;"}
{"topic": "DEVICES/866600047224803", "msg": "2313;866600047224803;$GPTXT,01,01,02,ANTSTATUS=OPEN*2B\r\n$GPRMC,023720.578,A,2742.4681,N,07436.2445,E,21.66,247.48,090322,,,A*5D\r\n$GPGGA,023720.578,2742.4681,N,07436.2445,E,1,7,1.06,350.7,M,-40.5,M,,*76\r\n;13989;15589;13955;11992;22418;19172;13834;17006;10370;12890;63800;64563;64649;63862;63568;3397;64401;1503;61954;64252;8252;63724;4029;60134;58914;57054;2537;126;59132;6256;593;606;485;519;571;528;585;548;449;579;268;178;257;65522;65156;65061;299;180;65115;65423;30;71;103;39;142;6;65498;66;111;81;1;1;1;1;1;1;1;1;1;1;40;0;-1;"}
{"topic": "DEVICES/866600047224498", "msg": "1028;866600047224498;$GPGGA,023721.620,1242.7940,N,07839.3218,E,1,5,3.42,372.6,M,-89.7,M,,*74\r\n$GPTXT,01,01,02,ANTSTATUS=OPEN*2B\r\n$GPRMC,023721.821,A,1242.7932,N,07839.3209,E,28.58,230.82,090322,,,A*51\r\n;14839;15480;18616;18127;8718;11969;15878;17817;18009;14959;727;2264;94;65080;63538;2453;597;65376;2288;925;55941;62706;62024;5435;60130;11099;59999;61862;3553;56913;38;0;47;53;88;85;32;61;68;20;347;964;65481;37;65208;66;278;563;130;1087;77;204;186;65503;65490;282;65519;58;179;65511;1;1;1;1;1;1;1;1;1;1;26;0;-1;"}
{"topic": "DEVICES/865291040682980", "msg": "2548;865291040682980;$GPTXT,01,01,02,ANTSTATUS=OPEN*2B\r\n$GPRMC,023721.687,A,2645.2988,N,07520.1466,E,19.66,239.99,090322,,,D*56\r\n$GPGGA,023721.687,2645.2988,N,07520.1466,E,2,5,1.40,341.5,M,-43.1,M,,*70\r\n;17546;19278;14905;14867;12355;16821;15621;16674;15867;14649;2777;61859;65498;60493;157;63132;65026;63614;60886;65298;64254;62975;63371;65471;63760;742;64419;594;61866;65140;16;265;36;65394;173;65388;56;57;65521;65494;65270;360;64960;280;65019;294;65514;86;65142;351;65463;266;64;65482;170;4;65473;177;132;65524;5;9;10;14;5;12;5;5;13;4;24;0;-1;"}
{"topic": "RESYNC/866600047224373", "msg": "\n1;866600047224373;$GPTXT,01,01,02,ANTSTATUS=OPEN*2B\r\n$GPRMC,235948.820,V,,,,,0.00,0.00,050180,,,N*4A\r\n$GPGGA,235948.820,,,,,0,0,,,M,,M,,*43\r\n;15356;18022;14143;15377;18651;16021;15373;14683;17360;17260;65107;62712;2553;63732;2371;1137;1930;980;64331;65357;63887;3279;64727;702;267;65011;65177;516;1449;718;65502;0;65517;65509;65509;65528;65522;65527;36;12;65462;172;65402;58;47;36;35;6;95;162;111;65448;65491;114;56;153;87;58;27;65490;1;1;7;5;7;48;32;8;5;15;30;0;-1;"}
{"topic": "DEVICES/865291040681693", "msg": "404;865291040681693;$GPRMC,023721.715,V,,,,,0.00,0.00,090322,,,N*41\r\n$GPGGA,023721.715,,,,,0,0,,,M,,M,,*4E\r\n$GPTXT,01,01,02,ANTSTATUS=OPEN*2B\r\n;16625;15386;15308;16703;15956;15607;16032;15816;16261;16573;64475;65190;65159;64228;63915;63999;64888;65173;65292;63632;63728;63778;63723;63769;63904;64169;64217;64286;64162;64460;126;146;146;176;161;146;164;208;220;217;70;65508;65430;128;47;65531;65534;30;178;108;76;98;75;83;45;72;110;114;99;71;10;5;19;5;14;14;12;7;15;7;29;0;-1;"}
{"topic": "DEVICES/865291040684564", "msg": "1125;865291040684564;$GPTXT,01,01,02,ANTSTATUS=OPEN*2B\r\n$GPRMC,023722.087,A,2332.9005,N,07701.2706,E,30.72,172.02,090322,,,D*56\r\n$GPGGA,023722.087,2332.9005,N,07701.2706,E,2,8,1.03,478.8,M,-56.7,M,,*78\r\n;16724;18239;15639;13781;16916;13782;17116;14344;17354;16919;1312;64582;808;295;43;1476;61389;1767;64792;62329;7340;5747;61202;60920;64705;11552;7696;55629;3859;61514;166;265;65504;135;122;158;192;65508;100;34;277;671;65294;389;325;507;500;64888;278;226;65448;65297;15;65501;65488;65448;65372;65512;65529;33;1;1;1;1;1;1;1;1;1;1;22;0;-1;"}
{"topic": "DEVICES/867481031928504", "msg": "4346;867481031928504;$GPRMC,023721.851,A,2432.2568,N,07342.3491,E,12.93,228.40,090322,,,D*5E\r\n$GPGGA,023721.851,2432.2568,N,07342.3491,E,2,10,0.89,595.4,M,-52.1,M,,*43\r\n$GPTXT,01,01,02,ANTSTATUS=OK*3B\r\n;15871;15914;14708;13611;16526;15269;13948;17815;17035;17970;65213;63980;711;62631;564;1391;1392;279;1432;49;4812;64229;3952;62089;1800;7435;62523;65398;4107;61124;65481;65472;65476;65491;65450;65473;65471;65479;65472;65471;65310;60;246;15;65389;2;65451;65377;97;65438;83;65507;9;7;65486;65440;65473;65470;65484;13;1;1;1;1;1;1;1;1;1;1;23;0;-1;"}
{"topic": "RESYNC/866600047224373", "msg": "0;866600047224373;$GPRMC,235946.809,V,,,,,0.00,0.00,050180,,,N*4F\r\n$GPGGA,235946.809,,,,,0,0,,,M,,M,,*46\r\n$GPTXT,01,01,02,ANTSTATUS=OPEN*2B\r\n;16702;15278;16037;16245;14614;18809;17249;14903;19600;19319;1462;295;65464;2589;64395;734;3585;2834;769;65345;3631;1260;3037;2541;1723;824;4849;2328;80;318;65512;65507;65483;65501;65505;65526;65498;65510;13;65528;7;38;11;33;44;19;5;65416;130;65478;13;65527;13;65488;1;65516;33;99;2;65477;5;12;22;1;33;8;4;20;5;5;30;0;-1;"}
{"topic": "DEVICES/866600047224803", "msg": "2314;866600047224803;$GPGGA,023722.789,2742.4628,N,07436.2314,E,1,7,1.02,350.6,M,-40.5,M,,*7D\r\n$GPTXT,01,01,02,ANTSTATUS=OPEN*2B\r\n$GPRMC,023722.990,A,2742.4625,N,07436.2301,E,21.59,247.59,090322,,,A*50\r\n;14939;12816;10846;15173;15633;25747;16782;17268;13537;20155;64031;63843;4094;62457;1246;65383;64811;3125;61318;62275;62294;62360;5973;62677;62232;56670;577;2965;59488;61909;554;537;602;565;597;634;630;580;515;475;80;65268;1015;65273;501;65393;65502;100;157;64753;117;39;86;24;82;49;13;16;98;61;1;1;1;1;1;1;1;1;1;1;40;0;-1;"}
{"topic": "DEVICES/866600042762443", "msg": "57597;866600042762443;$GPTXT,01,01,02,ANTSTATUS=OPEN*2B\r\n$GPRMC,023721.864,A,2407.5840,N,08238.6554,E,0.00,269.48,090322,,,D*64\r\n$GPGGA,023721.864,2407.5840,N,08238.6554,E,2,8,1.26,337.0,M,-53.6,M,,*7C\r\n;15982;15978;15970;15976;15979;15984;15975;15952;15986;15980;65295;65286;65281;65283;65294;65283;65297;65288;65285;65291;65420;65395;65424;65397;65409;65406;65399;65405;65428;65485;65342;65341;65333;65332;65340;65339;65333;65338;65334;65343;52;54;52;51;57;59;54;60;51;52;55;57;57;58;55;55;56;56;59;54;1;1;1;1;1;1;1;1;1;1;33;0;-1;"}
{"topic": "DEVICES/867481031847951", "msg": "2629;867481031847951;$GPGGA,023716.236,1824.8257,N,07312.7179,E,1,10,0.81,15.1,M,-64.4,M,,*74\r\n$GPTXT,01,01,02,ANTSTATUS=OK*3B\r\n$GPRMC,023716.437,A,1824.8268,N,07312.7179,E,19.49,0.80,090322,,,A*5C\r\n;10669;17285;15209;15649;8893;19482;9786;15093;14742;9849;214;55118;62754;62015;4899;496;63883;64876;1762;63021;62139;3625;61785;61254;53543;3135;60997;62990;1719;62919;65459;148;173;388;258;222;180;208;179;412;1085;64384;132;414;508;889;567;65490;65385;715;65139;249;65308;535;64857;65451;65530;65427;65513;184;0;0;0;0;0;0;0;0;0;0;31;0;-1;"}
{"topic": "DEVICES/867481031847951", "msg": "2630;867481031847951;$GPGGA,023718.447,1824.8385,N,07312.7181,E,1,10,0.81,14.4,M,-64.4,M,,*77\r\n$GPTXT,01,01,02,ANTSTATUS=OK*3B\r\n$GPRMC,023718.648,A,1824.8397,N,07312.7181,E,20.52,359.46,090322,,,A*5B\r\n;15953;11765;18592;14406;16501;15433;13383;21477;14098;13157;61569;4155;1145;61432;64663;65293;63892;2903;62534;362;59494;4212;60258;60864;63053;59854;65142;61973;65266;3377;300;150;336;271;214;351;282;317;216;334;402;64659;871;65446;65479;112;474;102;65507;66;65442;64991;3;35;65491;15;36;65493;65524;65511;0;0;0;0;0;0;0;0;0;0;31;0;-1;"}
{"topic": "DEVICES/865291040682873", "msg": "1537;865291040682873;$GPTXT,01,01,02,ANTSTATUS=OPEN*2B\r\n$GPRMC,023723.116,A,2041.7105,N,07258.5144,E,24.58,52.30,090322,,,A*62\r\n$GPGGA,023723.116,2041.7105,N,07258.5144,E,1,4,2.53,-5.4,M,-61.9,M,,*5A\r\n;16055;15724;13531;15356;16919;17166;16204;15369;15955;15895;65084;60506;1430;376;412;842;62804;235;64747;65309;6555;654;63675;63709;65330;1776;62822;62510;3051;1807;112;114;198;80;185;95;172;110;78;213;65523;65458;250;65353;65409;65479;65363;138;20;435;65501;227;65430;221;65475;212;6;74;36;65432;1;1;1;1;1;1;1;1;1;1;24;0;-1;"}
{"topic": "DEVICES/865291040681362", "msg": "23408;865291040681362;$GPRMC,023721.292,A,2407.5870,N,08238.6407,E,0.00,188.26,090322,,,D*67\r\n$GPGGA,023721.292,2407.5870,N,08238.6407,E,2,10,0.85,340.5,M,-53.6,M,,*4F\r\n$GPTXT,01,01,02,ANTSTATUS=OK*3B\r\n;16222;16235;16227;16230;16236;16233;16233;16235;16227;16225;360;342;349;373;339;357;360;363;349;336;63770;63746;63741;63753;63746;63753;63744;63758;63739;63788;10;8;11;10;4;5;7;8;7;8;69;70;73;71;74;70;66;66;62;67;75;78;74;80;73;74;74;77;77;73;5;24;5;9;9;18;18;14;5;5;28;0;-1;"}
{"topic": "DEVICES/865291040682980", "msg": "2549;865291040682980;$GPTXT,01,01,02,ANTSTATUS=OPEN*2B\r\n$GPRMC,023724.099,A,2645.2912,N,07520.1324,E,19.91,238.88,090322,,,D*51\r\n$GPGGA,023724.099,2645.2912,N,07520.1324,E,2,5,1.40,342.1,M,-43.1,M,,*79\r\n;11019;15936;16071;11379;18217;20340;14524;18662;17611;12401;64722;64418;65379;64036;1840;3354;64478;61532;62723;64603;63158;65255;63719;0;64298;62622;65000;63219;308;63701;99;1;132;65481;151;65311;180;123;196;65337;204;64950;456;64979;983;64573;706;65055;470;86;22;138;65532;45;65488;65514;53;158;57;114;8;5;5;5;5;5;5;4;5;5;24;0;-1;"}
{"topic": "DEVICES/865291040683004", "msg": "865291040683004 000111176 17Nov,2018 AsianPaint"}
{"topic": "DEVICES/865291040681362", "msg": "23409;865291040681362;$GPGGA,023723.503,2407.5870,N,08238.6407,E,2,10,0.85,340.5,M,-53.6,M,,*42\r\n$GPTXT,01,01,02,ANTSTATUS=OK*3B\r\n$GPRMC,023723.704,A,2407.5870,N,08238.6407,E,0.00,188.26,090322,,,D*6F\r\n;16246;16205;16248;16206;16233;16225;16230;16244;16220;16234;363;344;354;373;343;351;366;349;339;339;63786;63744;63757;63758;63750;63762;63755;63759;63741;63769;8;3;13;7;5;8;2;11;14;13;66;67;67;72;65;70;68;67;68;71;70;69;81;73;76;73;76;73;71;75;5;14;7;12;5;5;5;9;9;5;28;0;-1;"}
{"topic": "DEVICES/867481031928504", "msg": "4347;867481031928504;$GPTXT,01,01,02,ANTSTATUS=OK*3B\r\n$GPRMC,023724.263,A,2432.2506,N,07342.3417,E,14.01,227.59,090322,,,D*5C\r\n$GPGGA,023724.263,2432.2506,N,07342.3417,E,2,10,0.89,595.9,M,-52.1,M,,*46\r\n;15709;15661;15945;18006;17282;14667;14089;16996;15464;12859;65066;64832;450;565;64625;64638;65294;770;350;1631;179;65404;794;4997;1003;63348;64545;7253;1946;64142;65455;65494;65493;65471;65492;65466;65483;65453;65462;65477;224;3;148;65288;65484;72;65328;65301;22;65454;65455;65523;57;0;65499;65480;65425;65451;65508;65423;1;1;1;1;1;1;1;1;1;1;23;0;-1;"}
{"topic": "DEVICES/865291040681693", "msg": "405;865291040681693;$GPGGA,023723.925,,,,,0,0,,,M,,M,,*41\r\n$GPTXT,01,01,02,ANTSTATUS=OPEN*2B\r\n$GPRMC,023724.099,V,,,,,0.00,0.00,090322,,,N*47\r\n;16481;15708;16512;15209;17068;15528;17078;15069;16180;16632;64178;63738;64721;65389;65272;64264;63678;64803;65506;63946;64458;64784;64021;64112;63842;65053;64924;63651;63531;63343;192;187;159;188;188;200;187;190;190;221;107;181;34;22;104;65497;32;130;72;232;71;85;85;91;44;62;47;110;100;80;19;18;19;5;13;10;8;5;13;12;29;0;-1;"}
{"topic": "DEVICES/866600047224498", "msg": "1029;866600047224498;$GPRMC,023724.032,A,1242.7833,N,07839.3098,E,29.05,230.79,090322,,,A*59\r\n$GPGGA,023724.032,1242.7833,N,07839.3098,E,1,5,3.42,373.1,M,-89.7,M,,*7D\r\n$GPTXT,01,01,02,ANTSTATUS=OPEN*2B\r\n;13956;13420;17506;16676;14178;14047;17053;16942;19241;12808;63121;62164;64492;63908;1170;62158;283;65358;64779;2561;6735;1711;58997;7439;2290;4186;62215;2793;1146;65096;86;156;99;117;109;148;107;39;125;127;65325;65028;228;65317;65126;64572;423;1225;86;76;65531;214;25;164;63;107;198;65479;230;64;1;1;1;1;1;25;1;1;5;1;26;0;-1;"}
{"topic": "DEVICES/866600042762443", "msg": "57598;866600042762443;$GPGGA,023724.075,2407.5840,N,08238.6554,E,2,8,1.26,337.0,M,-53.6,M,,*71\r\n$GPTXT,01,01,02,ANTSTATUS=OPEN*2B\r\n$GPRMC,023724.276,A,2407.5840,N,08238.6554,E,0.00,269.48,090322,,,D*68\r\n;15953;15975;15973;15973;15981;15985;15987;15967;15975;15973;65295;65288;65283;65295;65294;65296;65287;65298;65286;65279;65427;65444;65429;65412;65405;65397;65392;65434;65400;65433;65343;65338;65340;65334;65350;65331;65340;65336;65333;65335;52;58;55;56;58;55;54;55;51;54;55;54;63;59;60;54;58;57;57;56;1;1;1;1;1;1;1;1;1;1;33;0;-1;"}
{"topic": "DEVICES/866600047224803", "msg": "2315;866600047224803;$GPRMC,023725.201,A,2742.4578,N,07436.2163,E,21.83,248.63,090322,,,A*58\r\n$GPGGA,023725.201,2742.4578,N,07436.2163,E,1,7,1.06,351.3,M,-40.5,M,,*7B\r\n$GPTXT,01,01,02,ANTSTATUS=OPEN*2B\r\n;18514;14758;22540;19434;12263;20879;17325;11308;13722;18973;1389;60714;2390;64538;62899;941;62610;408;62663;60684;56729;60519;54626;64785;1858;63450;64304;2288;63798;55878;521;566;461;515;569;486;598;505;538;576;576;44;65449;23;177;65370;486;242;24;64720;64;42;66;48;2;67;36;77;73;74;1;1;1;1;1;1;1;7928;1;1;40;0;-1;"}
{"topic": "DEVICES/865291040681362", "msg": "23410;865291040681362;$GPTXT,01,01,02,ANTSTATUS=OK*3B\r\n$GPRMC,023725.915,A,2407.5870,N,08238.6407,E,0.00,188.26,090322,,,D*67\r\n$GPGGA,023725.915,2407.5870,N,08238.6407,E,2,10,0.85,340.5,M,-53.6,M,,*4F\r\n;16235;16233;16237;16220;16194;16336;16259;16217;16235;16231;356;340;366;420;359;351;372;335;350;352;63757;63780;63702;63778;63798;63743;63821;63713;63756;63781;4;14;17;3;12;7;10;7;6;8;60;69;63;58;65;56;72;65;63;65;78;77;74;76;74;72;78;72;77;69;10;5;12;5;13;10;15;12;5;9;28;0;-1;"}
